[
  {
    "name": "MZ Aleksandrovo",
    "latitude": 46.06342005,
    "longitude": 19.69614249349785
  },
  {
    "name": "MZ Bajmok",
    "latitude": 46.086422,
    "longitude": 19.6410156
  },
  {
    "name": "MZ Bajnat",
    "latitude": 46.089530350000004,
    "longitude": 19.679993383617415
  },
  {
    "name": "MZ Backi Vinogradi",
    "latitude": 46.1233884,
    "longitude": 19.8564574
  },
  {
    "name": "MZ Backo Dušanovo",
    "latitude": 45.9051649,
    "longitude": 19.7850449
  },
  {
    "name": "MZ Bikovo",
    "latitude": 44.716056,
    "longitude": 21.173301
  },
  {
    "name": "MZ Centar I",
    "latitude": 46.1034818,
    "longitude": 19.6665785293586
  },
  {
    "name": "MZ Centar II",
    "latitude": 46.099647149999996,
    "longitude": 19.658463563807977
  },
  {
    "name": "MZ Centar III",
    "latitude": 46.09439215,
    "longitude": 19.666053153997687
  },
  {
    "name": "MZ Cantavir",
    "latitude": 45.9218656,
    "longitude": 19.7627015
  },
  {
    "name": "MZ Dudova šuma",
    "latitude": 46.11032415,
    "longitude": 19.654912017662248
  },
  {
    "name": "MZ Ðurdin",
    "latitude": 45.945663,
    "longitude": 19.5389124
  },
  {
    "name": "MZ Gat",
    "latitude": 46.09082615,
    "longitude": 19.65569766842559
  },
  {
    "name": "MZ Hajdukovo",
    "latitude": 46.1066044,
    "longitude": 19.8219481
  },
  {
    "name": "MZ Kelebija",
    "latitude": 44.716056,
    "longitude": 21.173301
  },
  {
    "name": "MZ Ker",
    "latitude": 46.081910699999995,
    "longitude": 19.66430893608969
  },
  {
    "name": "MZ Kertvaroš",
    "latitude": 46.10684175,
    "longitude": 19.68200792065834
  },
  {
    "name": "MZ Ljutovo",
    "latitude": 46.0657925,
    "longitude": 19.5259623
  },
  {
    "name": "MZ Makova sedmica",
    "latitude": 46.1522597,
    "longitude": 19.67003698991808
  },
  {
    "name": "MZ Mala Bosna",
    "latitude": 44.716056,
    "longitude": 21.173301
  },
  {
    "name": "MZ Mali Bajmok",
    "latitude": 46.0728407,
    "longitude": 19.628430135529225
  },
  {
    "name": "MZ Mali Radanovac",
    "latitude": 46.11673665,
    "longitude": 19.698437103988134
  },
  {
    "name": "MZ Mišicevo",
    "latitude": 44.716056,
    "longitude": 21.173301
  },
  {
    "name": "MZ Novi grad",
    "latitude": 46.0879259,
    "longitude": 19.716547919027605
  },
  {
    "name": "MZ Novi Žednik",
    "latitude": 44.716056,
    "longitude": 21.173301
  },
  {
    "name": "MZ Novo Selo",
    "latitude": 46.100381,
    "longitude": 19.63834097236864
  },
  {
    "name": "MZ Palic",
    "latitude": 46.1143455,
    "longitude": 19.76213229223572
  },
  {
    "name": "MZ Pešcara",
    "latitude": 46.1056459,
    "longitude": 19.60513436724461
  },
  {
    "name": "MZ Prozivka",
    "latitude": 46.0857718,
    "longitude": 19.675286437974144
  },
  {
    "name": "MZ Radanovac",
    "latitude": 46.117377250000004,
    "longitude": 19.725359798360046
  },
  {
    "name": "MZ Stari Žednik",
    "latitude": 44.716056,
    "longitude": 21.173301
  },
  {
    "name": "MZ Šupljak",
    "latitude": 44.716056,
    "longitude": 21.173301
  },
  {
    "name": "MZ Tavankut",
    "latitude": 44.716056,
    "longitude": 21.173301
  },
  {
    "name": "MZ Verušic",
    "latitude": 45.99943195,
    "longitude": 19.665100597607545
  },
  {
    "name": "MZ Višnjevac",
    "latitude": 45.9513874,
    "longitude": 19.7439629
  },
  {
    "name": "MZ Zorka",
    "latitude": 46.129924900000006,
    "longitude": 19.6373812285265
  },
  {
    "name": "MZ Željeznicko naselje",
    "latitude": 46.1277297,
    "longitude": 19.661568514143674
  }
]
